{
  "type": "FeatureCollection",
  "features": [
    {
      "type": "Feature",
      "properties": {
        "NAME": "Harrisonburg, VA",
        "COUNTRY": "USA",
        "TYPE": "City"
      },
      "geometry": {
        "type": "Point",
        "coordinates": [
          -78.86810302734375,
          38.44390909175746
        ]
      }
    },
    {
      "type": "Feature",
      "properties": {
        "NAME": "Franklin, WV",
        "COUNTRY": "USA",
        "TYPE": "City"
      },
      "geometry": {
        "type": "Point",
        "coordinates": [
          -79.32815551757812,
          38.64315421306983
        ]
      }
    },
    {
      "type": "Feature",
      "properties": {
        "NAME": "Broadway, VA",
        "COUNTRY": "USA",
        "TYPE": "Town"
      },
      "geometry": {
        "type": "Point",
        "coordinates": [
          -78.79600524902344,
          38.61418790695693
        ]
      }
    },
    {
      "type": "Feature",
      "properties": {
        "NAME": "Luray, VA",
        "COUNTRY": "USA",
        "TYPE": "Town"
      },
      "geometry": {
        "type": "Point",
        "coordinates": [
          -78.453369140625,
          38.666211605156704
        ]
      }
    },
    {
      "type": "Feature",
      "properties": {
        "NAME": "Front Royal, VA",
        "COUNTRY": "USA",
        "TYPE": "City"
      },
      "geometry": {
        "type": "Point",
        "coordinates": [
          -78.189697265625,
          38.91561302513129
        ]
      }
    },
    {
      "type": "Feature",
      "properties": {
        "NAME": "Monterey, VA",
        "COUNTRY": "USA",
        "TYPE": "Town"
      },
      "geometry": {
        "type": "Point",
        "coordinates": [
          -79.573974609375,
          38.41271038284709
        ]
      }
    },
    {
      "type": "Feature",
      "properties": {
        "NAME": "McDowell, VA",
        "COUNTRY": "USA",
        "TYPE": "Town"
      },
      "geometry": {
        "type": "Point",
        "coordinates": [
          -79.49037551879883,
          38.334923959718616
        ]
      }
    },
    {
      "type": "Feature",
      "properties": {
        "NAME": "Staunton, VA",
        "COUNTRY": "USA",
        "TYPE": "City"
      },
      "geometry": {
        "type": "Point",
        "coordinates": [
          -79.06997680664062,
          38.14967752360809
        ]
      }
    },
    {
      "type": "Feature",
      "properties": {
        "NAME": "Waynesboro, VA",
        "COUNTRY": "USA",
        "TYPE": "City"
      },
      "geometry": {
        "type": "Point",
        "coordinates": [
          -78.87702941894531,
          38.06647354576796
        ]
      }
    },
    {
      "type": "Feature",
      "properties": {
        "NAME": "Charlottesville, VA",
        "COUNTRY": "USA",
        "TYPE": "City"
      },
      "geometry": {
        "type": "Point",
        "coordinates": [
          -78.486328125,
          38.027540481011
        ]
      }
    },
    {
      "type": "Feature",
      "properties": {
        "NAME": "Orange, VA",
        "COUNTRY": "USA",
        "TYPE": "Town"
      },
      "geometry": {
        "type": "Point",
        "coordinates": [
          -78.10455322265625,
          38.24680876017446
        ]
      }
    },
    {
      "type": "Feature",
      "properties": {
        "NAME": "Madison, VA",
        "COUNTRY": "USA",
        "TYPE": "Town"
      },
      "geometry": {
        "type": "Point",
        "coordinates": [
          -78.25698852539062,
          38.38418943358851
        ]
      }
    },
    {
      "type": "Feature",
      "properties": {
        "NAME": "Shenandoah National Park, VA",
        "COUNTRY": "USA",
        "TYPE": "National Park"
      },
      "geometry": {
        "type": "Point",
        "coordinates": [
          -78.45474243164062,
          38.47509432050245
        ]
      }
    },
    {
      "type": "Feature",
      "properties": {
        "NAME": "Fredericksburg, VA",
        "COUNTRY": "USA",
        "TYPE": "City"
      },
      "geometry": {
        "type": "Point",
        "coordinates": [
          -77.46116638183594,
          38.306102934215616
        ]
      }
    },
    {
      "type": "Feature",
      "properties": {
        "NAME": "Washington DC, District of Columbia",
        "COUNTRY": "USA",
        "TYPE": "City"
      },
      "geometry": {
        "type": "Point",
        "coordinates": [
          -77.02789306640625,
          38.89530825492018
        ]
      }
    },
    {
      "type": "Feature",
      "properties": {
        "NAME": "College Park, MD",
        "COUNTRY": "USA",
        "TYPE": "City"
      },
      "geometry": {
        "type": "Point",
        "coordinates": [
          -76.92901611328125,
          38.98076276501633
        ]
      }
    },
    {
      "type": "Feature",
      "properties": {
        "NAME": "Fairfax, VA",
        "COUNTRY": "USA",
        "TYPE": "City"
      },
      "geometry": {
        "type": "Point",
        "coordinates": [
          -77.3052978515625,
          38.84826438869913
        ]
      }
    },
    {
      "type": "Feature",
      "properties": {
        "NAME": "Middleburg, VA",
        "COUNTRY": "USA",
        "TYPE": "City"
      },
      "geometry": {
        "type": "Point",
        "coordinates": [
          -77.73513793945312,
          38.971154274048345
        ]
      }
    },
    {
      "type": "Feature",
      "properties": {
        "NAME": "Winchester, VA",
        "COUNTRY": "USA",
        "TYPE": "City"
      },
      "geometry": {
        "type": "Point",
        "coordinates": [
          -78.16635131835938,
          39.18862643257856
        ]
      }
    },
    {
      "type": "Feature",
      "properties": {
        "NAME": "George Washington National Forest, VA",
        "COUNTRY": "USA",
        "TYPE": "National Forest"
      },
      "geometry": {
        "type": "Point",
        "coordinates": [
          -79.03701782226562,
          38.710160941206645
        ]
      }
    },
    {
      "type": "Feature",
      "properties": {
        "NAME": "Falls Church, VA",
        "COUNTRY": "USA",
        "TYPE": "City"
      },
      "geometry": {
        "type": "Point",
        "coordinates": [
          -77.16934204101562,
          38.886757140695906
        ]
      }
    },
    {
      "type": "Feature",
      "properties": {
        "NAME": "Reston, VA",
        "COUNTRY": "USA",
        "TYPE": "City"
      },
      "geometry": {
        "type": "Point",
        "coordinates": [
          -77.35954284667969,
          38.96047664397741
        ]
      }
    },
    {
      "type": "Feature",
      "properties": {
        "NAME": "Salisbury, MD",
        "COUNTRY": "USA",
        "TYPE": "City"
      },
      "geometry": {
        "type": "Point",
        "coordinates": [
          -75.6024169921875,
          38.371808917147554
        ]
      }
    },
    {
      "type": "Feature",
      "properties": {
        "NAME": "Assateague Island National Seashore, VA",
        "COUNTRY": "USA",
        "TYPE": "National Park"
      },
      "geometry": {
        "type": "Point",
        "coordinates": [
          -75.28656005859375,
          37.974514992024616
        ]
      }
    },
    {
      "type": "Feature",
      "properties": {
        "NAME": "Chincoteague, VA",
        "COUNTRY": "USA",
        "TYPE": "Town"
      },
      "geometry": {
        "type": "Point",
        "coordinates": [
          -75.37582397460938,
          37.938782346134396
        ]
      }
    },
    {
      "type": "Feature",
      "properties": {
        "NAME": "Tangier, VA",
        "COUNTRY": "USA",
        "TYPE": "Town"
      },
      "geometry": {
        "type": "Point",
        "coordinates": [
          -75.99037170410156,
          37.82849729680382
        ]
      }
    },
    {
      "type": "Feature",
      "properties": {
        "NAME": "Tylerton, VA",
        "COUNTRY": "USA",
        "TYPE": "Town"
      },
      "geometry": {
        "type": "Point",
        "coordinates": [
          -76.02298736572266,
          37.96747811844137
        ]
      }
    },
    {
      "type": "Feature",
      "properties": {
        "NAME": "Harpers Ferry, VA",
        "COUNTRY": "USA",
        "TYPE": "Town"
      },
      "geometry": {
        "type": "Point",
        "coordinates": [
          -77.73239135742188,
          39.32633057389337
        ]
      }
    },
    {
      "type": "Feature",
      "properties": {
        "NAME": "Brunswick, MD",
        "COUNTRY": "USA",
        "TYPE": "Town"
      },
      "geometry": {
        "type": "Point",
        "coordinates": [
          -77.62802124023438,
          39.31517545076218
        ]
      }
    },
    {
      "type": "Feature",
      "properties": {
        "NAME": "Berkeley Springs, WV",
        "COUNTRY": "USA",
        "TYPE": "Town"
      },
      "geometry": {
        "type": "Point",
        "coordinates": [
          -78.2281494140625,
          39.63953756436671
        ]
      }
    },
    {
      "type": "Feature",
      "properties": {
        "NAME": "Churchville, VA",
        "COUNTRY": "USA",
        "TYPE": "Town"
      },
      "geometry": {
        "type": "Point",
        "coordinates": [
          -79.1616439819336,
          38.227123177685996
        ]
      }
    },
    {
      "type": "Feature",
      "properties": {
        "NAME": "Massanutten Mountain, VA",
        "COUNTRY": "USA",
        "TYPE": "Natural Feature"
      },
      "geometry": {
        "type": "Point",
        "coordinates": [
          -78.77008438110352,
          38.39293526031571
        ]
      }
    },
    {
      "type": "Feature",
      "properties": {
        "NAME": "Dolly Sods Wilderness Area",
        "COUNTRY": "USA",
        "TYPE": "Wilderness Area"
      },
      "geometry": {
        "type": "Point",
        "coordinates": [
          -79.35596466064453,
          39.01971716735042
        ]
      }
    },
    {
      "type": "Feature",
      "properties": {
        "NAME": "Harman, WV",
        "COUNTRY": "USA",
        "TYPE": "Town"
      },
      "geometry": {
        "type": "Point",
        "coordinates": [
          -79.52384948730469,
          38.92416066460569
        ]
      }
    },
    {
      "type": "Feature",
      "properties": {
        "NAME": "Spruce Knob, WV",
        "COUNTRY": "USA",
        "TYPE": "Natural Feature"
      },
      "geometry": {
        "type": "Point",
        "coordinates": [
          -79.52642440795898,
          38.70761583218457
        ]
      }
    },
    {
      "type": "Feature",
      "properties": {
        "NAME": "Seneca Rocks, WV",
        "COUNTRY": "USA",
        "TYPE": "Natural Feature"
      },
      "geometry": {
        "type": "Point",
        "coordinates": [
          -79.36707973480225,
          38.83465997069901
        ]
      }
    },
    {
      "type": "Feature",
      "properties": {
        "NAME": "Whitegrass Ski Area, WV",
        "COUNTRY": "USA",
        "TYPE": "Natural Feature"
      },
      "geometry": {
        "type": "Point",
        "coordinates": [
          -79.42248344421387,
          39.01898363535647
        ]
      }
    },
    {
      "type": "Feature",
      "properties": {
        "NAME": "Davis, WV",
        "COUNTRY": "USA",
        "TYPE": "Town"
      },
      "geometry": {
        "type": "Point",
        "coordinates": [
          -79.46514129638672,
          39.129793920878676
        ]
      }
    },
    {
      "type": "Feature",
      "properties": {
        "NAME": "Blackwater Falls State Park, WV",
        "COUNTRY": "USA",
        "TYPE": "Natural Feature"
      },
      "geometry": {
        "type": "Point",
        "coordinates": [
          -79.53380584716795,
          39.10408918216985
        ]
      }
    },
    {
      "type": "Feature",
      "properties": {
        "NAME": "Thomas, WV",
        "COUNTRY": "USA",
        "TYPE": "Town"
      },
      "geometry": {
        "type": "Point",
        "coordinates": [
          -79.49878692626953,
          39.14949897356036
        ]
      }
    },
    {
      "type": "Feature",
      "properties": {
        "NAME": "Cumberland, MD",
        "COUNTRY": "USA",
        "TYPE": "City"
      },
      "geometry": {
        "type": "Point",
        "coordinates": [
          -78.76167297363281,
          39.65434146406167
        ]
      }
    },
    {
      "type": "Feature",
      "properties": {
        "NAME": "Keyser, WV",
        "COUNTRY": "USA",
        "TYPE": "Town"
      },
      "geometry": {
        "type": "Point",
        "coordinates": [
          -78.97418975830078,
          39.44176112227503
        ]
      }
    },
    {
      "type": "Feature",
      "properties": {
        "NAME": "Highland Retreat of the Mennonite Church, VA",
        "COUNTRY": "USA",
        "TYPE": "Natural Feature"
      },
      "geometry": {
        "type": "Point",
        "coordinates": [
          -78.89685630798338,
          38.77312351348149
        ]
      }
    },
    {
      "type": "Feature",
      "properties": {
        "NAME": "Blacksburg, VA",
        "COUNTRY": "USA",
        "TYPE": "Town"
      },
      "geometry": {
        "type": "Point",
        "coordinates": [
          -80.41786193847656,
          37.231421807404715
        ]
      }
    },
    {
      "type": "Feature",
      "properties": {
        "NAME": "Christiansburg, VA",
        "COUNTRY": "USA",
        "TYPE": "City"
      },
      "geometry": {
        "type": "Point",
        "coordinates": [
          -80.40069580078125,
          37.13842453422676
        ]
      }
    },
    {
      "type": "Feature",
      "properties": {
        "NAME": "Jefferson National Forest, VA",
        "COUNTRY": "USA",
        "TYPE": "National Forest"
      },
      "geometry": {
        "type": "Point",
        "coordinates": [
          -80.54351806640625,
          37.36360851770406
        ]
      }
    },
    {
      "type": "Feature",
      "properties": {
        "NAME": "Burkes Garden, VA",
        "COUNTRY": "USA",
        "TYPE": "Town"
      },
      "geometry": {
        "type": "Point",
        "coordinates": [
          -81.3372802734375,
          37.09462150015557
        ]
      }
    },
    {
      "type": "Feature",
      "properties": {
        "NAME": "Catawba, VA",
        "COUNTRY": "USA",
        "TYPE": "Town"
      },
      "geometry": {
        "type": "Point",
        "coordinates": [
          -80.11024475097656,
          37.38216158779349
        ]
      }
    },
    {
      "type": "Feature",
      "properties": {
        "NAME": "Pembroke, VA",
        "COUNTRY": "USA",
        "TYPE": "Town"
      },
      "geometry": {
        "type": "Point",
        "coordinates": [
          -80.63621520996094,
          37.32102825630305
        ]
      }
    },
    {
      "type": "Feature",
      "properties": {
        "NAME": "Pearisburg, VA",
        "COUNTRY": "USA",
        "TYPE": "Town"
      },
      "geometry": {
        "type": "Point",
        "coordinates": [
          -80.73234558105469,
          37.32703462722375
        ]
      }
    },
    {
      "type": "Feature",
      "properties": {
        "NAME": "Claytor Lake State Park, VA",
        "COUNTRY": "USA",
        "TYPE": "Natural Feature"
      },
      "geometry": {
        "type": "Point",
        "coordinates": [
          -80.6121826171875,
          37.05791696358488
        ]
      }
    },
    {
      "type": "Feature",
      "properties": {
        "NAME": "McAfee's Knob, VA",
        "COUNTRY": "USA",
        "TYPE": "Natural Feature"
      },
      "geometry": {
        "type": "Point",
        "coordinates": [
          -80.0357437133789,
          37.39252748113648
        ]
      }
    },
    {
      "type": "Feature",
      "properties": {
        "NAME": "Salem, VA",
        "COUNTRY": "USA",
        "TYPE": "City"
      },
      "geometry": {
        "type": "Point",
        "coordinates": [
          -80.05393981933594,
          37.29590550406618
        ]
      }
    },
    {
      "type": "Feature",
      "properties": {
        "NAME": "Roanoke, VA",
        "COUNTRY": "USA",
        "TYPE": "City"
      },
      "geometry": {
        "type": "Point",
        "coordinates": [
          -79.93377685546875,
          37.28497995025375
        ]
      }
    }
  ]
}